{"venues":[{"id":"4a737bf8f964a52091dc1fe3","name":"MTA Subway - Manhattan Bridge (B\/D\/N\/Q)","contact":{"twitter":"NYCTSubwayScoop"},"location":{"address":"Manhattan Bridge","crossStreet":"East River","lat":40.709076330707,"lng":-73.99197578430176,"distance":1216,"city":"New York","state":"NY"},"categories":[{"id":"4bf58dd8d48988d1fd931735","name":"Subway","pluralName":"Subways","shortName":"Subway","icon":{"prefix":"https:\/\/foursquare.com\/img\/categories\/travel\/subway_","sizes":[32,44,64,88,256],"name":".png"},"primary":true}],"verified":false,"stats":{"checkinsCount":66967,"usersCount":5929,"tipCount":101},"hereNow":{"count":15}},{"id":"49e7c7c6f964a5201b651fe3","name":"Pace University","contact":{"twitter":"paceuniversity"},"location":{"address":"1 Pace Plaza","crossStreet":"at Nassau St","lat":40.71110949732056,"lng":-74.00504350662231,"distance":1307,"postalCode":"11231","city":"New York","state":"NY","country":"USA"},"categories":[{"id":"4bf58dd8d48988d1ae941735","name":"University","pluralName":"Universities","shortName":"University","icon":{"prefix":"https:\/\/foursquare.com\/img\/categories\/education\/default_","sizes":[32,44,64,88,256],"name":".png"},"primary":true}],"verified":true,"stats":{"checkinsCount":11183,"usersCount":1752,"tipCount":32},"hereNow":{"count":13}},{"id":"4ae8906ef964a52071b021e3","name":"World Trade Center PATH Station","contact":{"phone":"8002347284","formattedPhone":"(800) 234-7284","twitter":"PATHTweet"},"location":{"address":"Vesey St","crossStreet":"at W Broadway and Greenwich St","lat":40.71267092713338,"lng":-74.01193141937256,"distance":1733,"postalCode":"10006","city":"New York","state":"NY","country":"USA"},"categories":[{"id":"4bf58dd8d48988d129951735","name":"Train Station","pluralName":"Train Stations","shortName":"Train Station","icon":{"prefix":"https:\/\/foursquare.com\/img\/categories\/travel\/trainstation_","sizes":[32,44,64,88,256],"name":".png"},"primary":true}],"verified":true,"stats":{"checkinsCount":36241,"usersCount":6454,"tipCount":60},"url":"http:\/\/www.panynj.gov\/path","hereNow":{"count":11}},{"id":"4165d880f964a5207e1d1fe3","name":"Staten Island Ferry - Whitehall Terminal","contact":{"phone":"7188152628","formattedPhone":"(718) 815-2628","twitter":"nyc_dot"},"location":{"address":"4 South St","crossStreet":"South Ferry","lat":40.70032487303126,"lng":-74.01309013366699,"distance":1105,"postalCode":"10004","city":"New York","state":"NY","country":"USA"},"categories":[{"id":"4bf58dd8d48988d12d951735","name":"Boat or Ferry","pluralName":"Boats or Ferries","shortName":"Boat \/ Ferry","icon":{"prefix":"https:\/\/foursquare.com\/img\/categories\/travel\/boat_","sizes":[32,44,64,88,256],"name":".png"},"primary":true}],"verified":true,"stats":{"checkinsCount":34179,"usersCount":13070,"tipCount":191},"url":"http:\/\/nyc.gov\/dot","hereNow":{"count":10}},{"id":"4a32c3f9f964a5208c9a1fe3","name":"Manhattan Bridge","contact":{"twitter":"nyc_dot"},"location":{"address":"Manhattan Bridge","lat":40.705888200473375,"lng":-73.9900016784668,"distance":1068,"postalCode":"10002","city":"New York","state":"NY","country":"USA"},"categories":[{"id":"4bf58dd8d48988d1df941735","name":"Bridge","pluralName":"Bridges","shortName":"Bridge","icon":{"prefix":"https:\/\/foursquare.com\/img\/categories\/parks_outdoors\/default_","sizes":[32,44,64,88,256],"name":".png"},"primary":true}],"verified":true,"stats":{"checkinsCount":25038,"usersCount":7697,"tipCount":64},"url":"http:\/\/nyc.gov\/dot","hereNow":{"count":8}},{"id":"4b298573f964a52050a024e3","name":"New York City College of Technology","contact":{"phone":"7182605000","formattedPhone":"(718) 260-5000","twitter":"CityTechNews"},"location":{"address":"300 Jay St","crossStreet":"Tillary St","lat":40.695647,"lng":-73.987454,"distance":1164,"postalCode":"11201","city":"Brooklyn","state":"NY","country":"USA"},"categories":[{"id":"4bf58dd8d48988d1ae941735","name":"University","pluralName":"Universities","shortName":"University","icon":{"prefix":"https:\/\/foursquare.com\/img\/categories\/education\/default_","sizes":[32,44,64,88,256],"name":".png"},"primary":true}],"verified":false,"stats":{"checkinsCount":3754,"usersCount":580,"tipCount":11},"hereNow":{"count":7}},{"id":"49ff62f9f964a52013701fe3","name":"Century 21","contact":{"phone":"2122279092","formattedPhone":"(212) 227-9092"},"location":{"address":"22 Cortlandt St.","crossStreet":"btwn Church St. & Broadway","lat":40.71060527778915,"lng":-74.01098728179932,"distance":1501,"postalCode":"10007","city":"New York","state":"NY","country":"USA"},"categories":[{"id":"4bf58dd8d48988d103951735","name":"Clothing Store","pluralName":"Clothing Stores","shortName":"Apparel","icon":{"prefix":"https:\/\/foursquare.com\/img\/categories\/shops\/apparel_","sizes":[32,44,64,88,256],"name":".png"},"primary":true}],"verified":false,"stats":{"checkinsCount":12091,"usersCount":8202,"tipCount":139},"hereNow":{"count":7}},{"id":"49c170abf964a520a7551fe3","name":"Trader Joe's","contact":{"phone":"7182468460","formattedPhone":"(718) 246-8460","twitter":"traderjoes"},"location":{"address":"130 Court St","crossStreet":"Atlantic Ave","lat":40.689704,"lng":-73.992641,"distance":1303,"postalCode":"11201","city":"Brooklyn","state":"NY","country":"USA"},"categories":[{"id":"4bf58dd8d48988d118951735","name":"Grocery or Supermarkets","pluralName":"Grocery or Supermarkets","shortName":"Grocery Store","icon":{"prefix":"https:\/\/foursquare.com\/img\/categories\/shops\/food_grocery_","sizes":[32,44,64,88,256],"name":".png"},"primary":true}],"verified":false,"stats":{"checkinsCount":13902,"usersCount":4335,"tipCount":70},"hereNow":{"count":6}},{"id":"4b6b5abff964a520fb022ce3","name":"National September 11 Memorial","contact":{"phone":"2123128800","formattedPhone":"(212) 312-8800","twitter":"Sept11Memorial"},"location":{"address":"Greenwich St.","crossStreet":"at World Trade Center","lat":40.7114673282201,"lng":-74.01328325271606,"distance":1698,"postalCode":"10007","city":"New York","state":"NY","country":"USA"},"categories":[{"id":"4deefb944765f83613cdba6e","name":"Historic Site","pluralName":"Historic Sites","shortName":"Historic Site","icon":{"prefix":"https:\/\/foursquare.com\/img\/categories\/arts_entertainment\/museum_","sizes":[32,44,64,88,256],"name":".png"},"primary":true}],"verified":false,"stats":{"checkinsCount":25560,"usersCount":17964,"tipCount":142},"url":"http:\/\/www.911memorial.org","hereNow":{"count":6}}]}